$GPRMC,221717.988,V,3454.928,N,08102.498,W,75.5,2.30,230119,,E*4F
$GPGGA,221718.988,3454.928,N,08102.498,W,0,00,,,M,,M,,*5C
$GPGLL,3454.928,N,08102.498,W,221719.988,V*3D
$GPRMC,221720.988,V,3454.926,N,08102.499,W,73.3,2.30,230119,,E*44
$GPGGA,221721.988,3454.926,N,08102.499,W,0,00,,,M,,M,,*59
$GPGLL,3454.926,N,08102.499,W,221722.988,V*3A
$GPRMC,221723.988,V,3454.925,N,08102.500,W,7.9,2.38,230119,,E*74
$GPGGA,221724.988,3454.925,N,08102.500,W,0,00,,,M,,M,,*5E
$GPGLL,3454.925,N,08102.500,W,221725.988,V*3F
$GPRMC,221726.988,V,3454.923,N,08102.501,W,58.4,2.35,230119,,E*4C
$GPGGA,221727.988,3454.923,N,08102.501,W,0,00,,,M,,M,,*5A
$GPGLL,3454.923,N,08102.501,W,221728.988,V*35
$GPRMC,221729.988,V,3454.922,N,08102.502,W,44.4,2.39,230119,,E*40
$GPGGA,221730.988,3454.922,N,08102.502,W,0,00,,,M,,M,,*5E
$GPGLL,3454.922,N,08102.502,W,221731.988,V*3F
$GPRMC,221732.988,V,3454.921,N,08102.503,W,48.5,2.49,230119,,E*42
$GPGGA,221733.988,3454.921,N,08102.503,W,0,00,,,M,,M,,*5F
$GPGLL,3454.921,N,08102.503,W,221734.988,V*38
$GPRMC,221735.988,V,3454.920,N,08102.504,W,0.9,2.54,230119,,E*7F
$GPGGA,221736.988,3454.920,N,08102.504,W,0,00,,,M,,M,,*5C
$GPGLL,3454.920,N,08102.504,W,221737.988,V*3D
$GPRMC,221738.988,V,3454.919,N,08102.506,W,27.7,2.63,230119,,E*45
$GPGGA,221739.988,3454.919,N,08102.506,W,0,00,,,M,,M,,*5B
$GPGLL,3454.919,N,08102.506,W,221740.988,V*35
$GPRMC,221741.988,V,3454.917,N,08102.507,W,69.9,2.57,230119,,E*47
$GPGGA,221742.988,3454.917,N,08102.507,W,0,00,,,M,,M,,*58
$GPGLL,3454.917,N,08102.507,W,221743.988,V*39
$GPRMC,221744.988,V,3454.917,N,08102.509,W,39.8,2.78,230119,,E*45
$GPGGA,221745.988,3454.917,N,08102.509,W,0,00,,,M,,M,,*51
$GPGLL,3454.917,N,08102.509,W,221746.988,V*32
$GPRMC,221747.988,V,3454.916,N,08102.511,W,39.6,2.84,230119,,E*43
$GPGGA,221748.988,3454.916,N,08102.511,W,0,00,,,M,,M,,*54
$GPGLL,3454.916,N,08102.511,W,221749.988,V*35
$GPRMC,221750.988,V,3454.916,N,08102.513,W,53.6,2.82,230119,,E*4D
$GPGGA,221751.988,3454.916,N,08102.513,W,0,00,,,M,,M,,*5E
$GPGLL,3454.916,N,08102.513,W,221752.988,V*3D
$GPRMC,221753.988,V,3454.915,N,08102.514,W,39.1,2.80,230119,,E*43
$GPGGA,221754.988,3454.915,N,08102.514,W,0,00,,,M,,M,,*5F
$GPGLL,3454.915,N,08102.514,W,221755.988,V*3E
$GPRMC,221756.988,V,3454.915,N,08102.516,W,55.1,2.90,230119,,E*4F
$GPGGA,221757.988,3454.915,N,08102.516,W,0,00,,,M,,M,,*5E
$GPGLL,3454.915,N,08102.516,W,221758.988,V*31
$GPRMC,221759.988,V,3454.915,N,08102.518,W,57.1,2.86,230119,,E*4B
$GPGGA,221800.988,3454.915,N,08102.518,W,0,00,,,M,,M,,*5D
$GPGLL,3454.915,N,08102.518,W,221801.988,V*3C
$GPRMC,221802.988,V,3454.914,N,08102.520,W,89.1,2.94,230119,,E*40
$GPGGA,221803.988,3454.914,N,08102.520,W,0,00,,,M,,M,,*54
$GPGLL,3454.914,N,08102.520,W,221804.988,V*33
$GPRMC,221805.988,V,3454.914,N,08102.521,W,10.0,2.96,230119,,E*45
$GPGGA,221806.988,3454.914,N,08102.521,W,0,00,,,M,,M,,*50
$GPGLL,3454.914,N,08102.521,W,221807.988,V*31
$GPRMC,221808.988,V,3454.914,N,08102.523,W,30.6,2.97,230119,,E*4F
$GPGGA,221809.988,3454.914,N,08102.523,W,0,00,,,M,,M,,*5D
$GPGLL,3454.914,N,08102.523,W,221810.988,V*35
$GPRMC,221811.988,V,3454.915,N,08102.525,W,18.7,3.33,230119,,E*44
$GPGGA,221812.988,3454.915,N,08102.525,W,0,00,,,M,,M,,*50
$GPGLL,3454.915,N,08102.525,W,221813.988,V*31
$GPRMC,221814.988,V,3454.916,N,08102.526,W,61.2,3.36,230119,,E*4F
$GPGGA,221815.988,3454.916,N,08102.526,W,0,00,,,M,,M,,*57
$GPGLL,3454.916,N,08102.526,W,221816.988,V*34
$GPRMC,221817.988,V,3454.917,N,08102.527,W,76.7,3.55,230119,,E*4A
$GPGGA,221818.988,3454.917,N,08102.527,W,0,00,,,M,,M,,*5A
$GPGLL,3454.917,N,08102.527,W,221819.988,V*3B
$GPRMC,221820.988,V,3454.919,N,08102.529,W,39.8,3.48,230119,,E*46
$GPGGA,221821.988,3454.919,N,08102.529,W,0,00,,,M,,M,,*50
$GPGLL,3454.919,N,08102.529,W,221822.988,V*33
$GPRMC,221823.988,V,3454.920,N,08102.530,W,45.7,3.47,230119,,E*4C
$GPGGA,221824.988,3454.920,N,08102.530,W,0,00,,,M,,M,,*57
$GPGLL,3454.920,N,08102.530,W,221825.988,V*36
$GPRMC,221826.988,V,3454.921,N,08102.531,W,48.9,3.43,230119,,E*4E
$GPGGA,221827.988,3454.921,N,08102.531,W,0,00,,,M,,M,,*54
$GPGLL,3454.921,N,08102.531,W,221828.988,V*3B
$GPRMC,221829.988,V,3454.922,N,08102.533,W,10.0,3.36,230119,,E*46
$GPGGA,221830.988,3454.922,N,08102.533,W,0,00,,,M,,M,,*53
$GPGLL,3454.922,N,08102.533,W,221831.988,V*32
$GPRMC,221832.988,V,3454.923,N,08102.535,W,83.1,3.29,230119,,E*4E
$GPGGA,221833.988,3454.923,N,08102.535,W,0,00,,,M,,M,,*57
$GPGLL,3454.923,N,08102.535,W,221834.988,V*30
$GPRMC,221835.988,V,3454.924,N,08102.536,W,1.0,3.55,230119,,E*7D
$GPGGA,221836.988,3454.924,N,08102.536,W,0,00,,,M,,M,,*56
$GPGLL,3454.924,N,08102.536,W,221837.988,V*37
$GPRMC,221838.988,V,3454.926,N,08102.537,W,36.0,3.65,230119,,E*44
$GPGGA,221839.988,3454.926,N,08102.537,W,0,00,,,M,,M,,*5A
$GPGLL,3454.926,N,08102.537,W,221840.988,V*34
$GPRMC,221841.988,V,3454.927,N,08102.537,W,3.7,3.83,230119,,E*72
$GPGGA,221842.988,3454.927,N,08102.537,W,0,00,,,M,,M,,*57
$GPGLL,3454.927,N,08102.537,W,221843.988,V*36
$GPRMC,221844.988,V,3454.929,N,08102.538,W,34.1,3.80,230119,,E*47
$GPGGA,221845.988,3454.929,N,08102.538,W,0,00,,,M,,M,,*51
$GPGLL,3454.929,N,08102.538,W,221846.988,V*32
$GPRMC,221847.988,V,3454.931,N,08102.538,W,58.9,3.74,230119,,E*44
$GPGGA,221848.988,3454.931,N,08102.538,W,0,00,,,M,,M,,*55
$GPGLL,3454.931,N,08102.538,W,221849.988,V*34
$GPRMC,221850.988,V,3454.932,N,08102.540,W,3.2,3.37,230119,,E*7C
$GPGGA,221851.988,3454.932,N,08102.540,W,0,00,,,M,,M,,*51
$GPGLL,3454.932,N,08102.540,W,221852.988,V*32
$GPRMC,221853.988,V,3454.932,N,08102.542,W,63.0,3.27,230119,,E*48
$GPGGA,221854.988,3454.932,N,08102.542,W,0,00,,,M,,M,,*56
$GPGLL,3454.932,N,08102.542,W,221855.988,V*37
$GPRMC,221856.988,V,3454.933,N,08102.543,W,63.1,3.21,230119,,E*4A
$GPGGA,221857.988,3454.933,N,08102.543,W,0,00,,,M,,M,,*55
$GPGLL,3454.933,N,08102.543,W,221858.988,V*3A
$GPRMC,221859.988,V,3454.934,N,08102.545,W,31.0,3.23,230119,,E*40
$GPGGA,221900.988,3454.934,N,08102.545,W,0,00,,,M,,M,,*57
$GPGLL,3454.934,N,08102.545,W,221901.988,V*36
$GPRMC,221902.988,V,3454.935,N,08102.547,W,54.7,3.33,230119,,E*49
$GPGGA,221903.988,3454.935,N,08102.547,W,0,00,,,M,,M,,*57
$GPGLL,3454.935,N,08102.547,W,221904.988,V*30
$GPRMC,221905.988,V,3454.935,N,08102.548,W,20.7,3.11,230119,,E*42
$GPGGA,221906.988,3454.935,N,08102.548,W,0,00,,,M,,M,,*5D
$GPGLL,3454.935,N,08102.548,W,221907.988,V*3C
$GPRMC,221908.988,V,3454.935,N,08102.550,W,96.5,3.12,230119,,E*4A
$GPGGA,221909.988,3454.935,N,08102.550,W,0,00,,,M,,M,,*5B
$GPGLL,3454.935,N,08102.550,W,221910.988,V*33
$GPRMC,221911.988,V,3454.935,N,08102.552,W,46.7,3.03,230119,,E*4F
$GPGGA,221912.988,3454.935,N,08102.552,W,0,00,,,M,,M,,*53
$GPGLL,3454.935,N,08102.552,W,221913.988,V*32
$GPRMC,221914.988,V,3454.935,N,08102.554,W,42.5,3.01,230119,,E*48
$GPGGA,221915.988,3454.935,N,08102.554,W,0,00,,,M,,M,,*52
$GPGLL,3454.935,N,08102.554,W,221916.988,V*31
$GPRMC,221917.988,V,3454.935,N,08102.556,W,64.4,3.01,230119,,E*4C
$GPGGA,221918.988,3454.935,N,08102.556,W,0,00,,,M,,M,,*5D
$GPGLL,3454.935,N,08102.556,W,221919.988,V*3C
$GPRMC,221920.988,V,3454.935,N,08102.557,W,45.8,2.92,230119,,E*4D
$GPGGA,221921.988,3454.935,N,08102.557,W,0,00,,,M,,M,,*56
$GPGLL,3454.935,N,08102.557,W,221922.988,V*35
$GPRMC,221923.988,V,3454.935,N,08102.559,W,31.4,3.00,230119,,E*45
$GPGGA,221924.988,3454.935,N,08102.559,W,0,00,,,M,,M,,*5D
$GPGLL,3454.935,N,08102.559,W,221925.988,V*3C
$GPRMC,221926.988,V,3454.935,N,08102.561,W,75.6,3.00,230119,,E*49
$GPGGA,221927.988,3454.935,N,08102.561,W,0,00,,,M,,M,,*55
$GPGLL,3454.935,N,08102.561,W,221928.988,V*3A
$GPRMC,221929.988,V,3454.935,N,08102.563,W,40.8,3.04,230119,,E*48
$GPGGA,221930.988,3454.935,N,08102.563,W,0,00,,,M,,M,,*51
$GPGLL,3454.935,N,08102.563,W,221931.988,V*30
$GPRMC,221932.988,V,3454.936,N,08102.564,W,93.9,3.07,230119,,E*4A
$GPGGA,221933.988,3454.936,N,08102.564,W,0,00,,,M,,M,,*56
$GPGLL,3454.936,N,08102.564,W,221934.988,V*31
$GPRMC,221935.988,V,3454.936,N,08102.566,W,49.2,3.04,230119,,E*40
$GPGGA,221936.988,3454.936,N,08102.566,W,0,00,,,M,,M,,*51
$GPGLL,3454.936,N,08102.566,W,221937.988,V*30
$GPRMC,221938.988,V,3454.936,N,08102.568,W,91.9,3.01,230119,,E*48
$GPGGA,221939.988,3454.936,N,08102.568,W,0,00,,,M,,M,,*50
$GPGLL,3454.936,N,08102.568,W,221940.988,V*3E
$GPRMC,221941.988,V,3454.935,N,08102.570,W,15.2,2.92,230119,,E*40
$GPGGA,221942.988,3454.935,N,08102.570,W,0,00,,,M,,M,,*56
$GPGLL,3454.935,N,08102.570,W,221943.988,V*37
$GPRMC,221944.988,V,3454.935,N,08102.572,W,81.1,2.92,230119,,E*49
$GPGGA,221945.988,3454.935,N,08102.572,W,0,00,,,M,,M,,*53
$GPGLL,3454.935,N,08102.572,W,221946.988,V*30
$GPRMC,221947.988,V,3454.935,N,08102.573,W,29.1,2.92,230119,,E*49
$GPGGA,221948.988,3454.935,N,08102.573,W,0,00,,,M,,M,,*5F
$GPGLL,3454.935,N,08102.573,W,221949.988,V*3E
$GPRMC,221950.988,V,3454.935,N,08102.575,W,19.1,2.84,230119,,E*4D
$GPGGA,221951.988,3454.935,N,08102.575,W,0,00,,,M,,M,,*51
$GPGLL,3454.935,N,08102.575,W,221952.988,V*32
$GPRMC,221953.988,V,3454.934,N,08102.577,W,72.9,2.79,230119,,E*4A
$GPGGA,221954.988,3454.934,N,08102.577,W,0,00,,,M,,M,,*57
$GPGLL,3454.934,N,08102.577,W,221955.988,V*36
$GPRMC,221956.988,V,3454.933,N,08102.579,W,16.9,2.75,230119,,E*48
$GPGGA,221957.988,3454.933,N,08102.579,W,0,00,,,M,,M,,*5D
$GPGLL,3454.933,N,08102.579,W,221958.988,V*32
$GPRMC,221959.988,V,3454.933,N,08102.580,W,63.6,2.76,230119,,E*4F
$GPGGA,222000.988,3454.933,N,08102.580,W,0,00,,,M,,M,,*53
$GPGLL,3454.933,N,08102.580,W,222001.988,V*32
$GPRMC,222002.988,V,3454.932,N,08102.582,W,33.7,2.87,230119,,E*42
$GPGGA,222003.988,3454.932,N,08102.582,W,0,00,,,M,,M,,*53
$GPGLL,3454.932,N,08102.582,W,222004.988,V*34
$GPRMC,222005.988,V,3454.932,N,08102.584,W,67.4,2.89,230119,,E*4F
$GPGGA,222006.988,3454.932,N,08102.584,W,0,00,,,M,,M,,*50
$GPGLL,3454.932,N,08102.584,W,222007.988,V*31
$GPRMC,222008.988,V,3454.931,N,08102.585,W,0.3,2.80,230119,,E*7F
$GPGGA,222009.988,3454.931,N,08102.585,W,0,00,,,M,,M,,*5D
$GPGLL,3454.931,N,08102.585,W,222010.988,V*35
$GPRMC,222011.988,V,3454.931,N,08102.587,W,64.0,2.91,230119,,E*44
$GPGGA,222012.988,3454.931,N,08102.587,W,0,00,,,M,,M,,*55
$GPGLL,3454.931,N,08102.587,W,222013.988,V*34
$GPRMC,222014.988,V,3454.930,N,08102.589,W,62.0,2.64,230119,,E*42
$GPGGA,222015.988,3454.930,N,08102.589,W,0,00,,,M,,M,,*5D
$GPGLL,3454.930,N,08102.589,W,222016.988,V*3E
$GPRMC,222017.988,V,3454.929,N,08102.590,W,86.9,2.57,230119,,E*42
$GPGGA,222018.988,3454.929,N,08102.590,W,0,00,,,M,,M,,*50
$GPGLL,3454.929,N,08102.590,W,222019.988,V*31
$GPRMC,222020.988,V,3454.928,N,08102.592,W,89.2,2.66,230119,,E*43
$GPGGA,222021.988,3454.928,N,08102.592,W,0,00,,,M,,M,,*59
$GPGLL,3454.928,N,08102.592,W,222022.988,V*3A
$GPRMC,222023.988,V,3454.927,N,08102.593,W,18.8,2.65,230119,,E*4F
$GPGGA,222024.988,3454.927,N,08102.593,W,0,00,,,M,,M,,*52
$GPGLL,3454.927,N,08102.593,W,222025.988,V*33
$GPRMC,222026.988,V,3454.926,N,08102.595,W,68.1,2.54,230119,,E*41
$GPGGA,222027.988,3454.926,N,08102.595,W,0,00,,,M,,M,,*56
$GPGLL,3454.926,N,08102.595,W,222028.988,V*39
$GPRMC,222029.988,V,3454.925,N,08102.596,W,27.5,2.47,230119,,E*43
$GPGGA,222030.988,3454.925,N,08102.596,W,0,00,,,M,,M,,*50
$GPGLL,3454.925,N,08102.596,W,222031.988,V*31
$GPRMC,222032.988,V,3454.924,N,08102.597,W,28.5,2.58,230119,,E*48
$GPGGA,222033.988,3454.924,N,08102.597,W,0,00,,,M,,M,,*53
$GPGLL,3454.924,N,08102.597,W,222034.988,V*34
$GPRMC,222035.988,V,3454.923,N,08102.599,W,79.4,2.65,230119,,E*4D
$GPGGA,222036.988,3454.923,N,08102.599,W,0,00,,,M,,M,,*5F
$GPGLL,3454.923,N,08102.599,W,222037.988,V*3E
$GPRMC,222038.988,V,3454.923,N,08102.601,W,69.2,3.09,230119,,E*4E
$GPGGA,222039.988,3454.923,N,08102.601,W,0,00,,,M,,M,,*52
$GPGLL,3454.923,N,08102.601,W,222040.988,V*3C
$GPRMC,222041.988,V,3454.923,N,08102.602,W,65.9,3.12,230119,,E*4E
$GPGGA,222042.988,3454.923,N,08102.602,W,0,00,,,M,,M,,*5D
$GPGLL,3454.923,N,08102.602,W,222043.988,V*3C
$GPRMC,222044.988,V,3454.923,N,08102.604,W,17.8,3.11,230119,,E*4A
$GPGGA,222045.988,3454.923,N,08102.604,W,0,00,,,M,,M,,*5C
$GPGLL,3454.923,N,08102.604,W,222046.988,V*3F
$GPRMC,222047.988,V,3454.924,N,08102.606,W,66.5,3.17,230119,,E*41
$GPGGA,222048.988,3454.924,N,08102.606,W,0,00,,,M,,M,,*54
$GPGLL,3454.924,N,08102.606,W,222049.988,V*35
$GPRMC,222050.988,V,3454.925,N,08102.607,W,94.2,3.27,230119,,E*4E
$GPGGA,222051.988,3454.925,N,08102.607,W,0,00,,,M,,M,,*5C
$GPGLL,3454.925,N,08102.607,W,222052.988,V*3F
$GPRMC,222053.988,V,3454.925,N,08102.609,W,75.7,3.20,230119,,E*4E
$GPGGA,222054.988,3454.925,N,08102.609,W,0,00,,,M,,M,,*57
$GPGLL,3454.925,N,08102.609,W,222055.988,V*36
$GPRMC,222056.988,V,3454.927,N,08102.610,W,95.7,3.57,230119,,E*4F
$GPGGA,222057.988,3454.927,N,08102.610,W,0,00,,,M,,M,,*5E
$GPGLL,3454.927,N,08102.610,W,222058.988,V*31
$GPRMC,222059.988,V,3454.928,N,08102.611,W,10.2,3.63,230119,,E*41
$GPGGA,222100.988,3454.928,N,08102.611,W,0,00,,,M,,M,,*53
$GPGLL,3454.928,N,08102.611,W,222101.988,V*32
$GPRMC,222102.988,V,3454.930,N,08102.611,W,40.1,4.05,230119,,E*46
$GPGGA,222103.988,3454.930,N,08102.611,W,0,00,,,M,,M,,*59
$GPGLL,3454.930,N,08102.611,W,222104.988,V*3E
$GPRMC,222105.988,V,3454.932,N,08102.611,W,86.1,4.10,230119,,E*4D
$GPGGA,222106.988,3454.932,N,08102.611,W,0,00,,,M,,M,,*5E
$GPGLL,3454.932,N,08102.611,W,222107.988,V*3F
$GPRMC,222108.988,V,3454.934,N,08102.611,W,75.3,4.10,230119,,E*48
$GPGGA,222109.988,3454.934,N,08102.611,W,0,00,,,M,,M,,*57
$GPGLL,3454.934,N,08102.611,W,222110.988,V*3F
$GPRMC,222111.988,V,3454.935,N,08102.610,W,34.5,4.05,230119,,E*47
$GPGGA,222112.988,3454.935,N,08102.610,W,0,00,,,M,,M,,*5D
$GPGLL,3454.935,N,08102.610,W,222113.988,V*3C
$GPRMC,222114.988,V,3454.937,N,08102.611,W,71.8,3.96,230119,,E*40
$GPGGA,222115.988,3454.937,N,08102.611,W,0,00,,,M,,M,,*59
$GPGLL,3454.937,N,08102.611,W,222116.988,V*3A
$GPRMC,222117.988,V,3454.939,N,08102.611,W,11.8,3.85,230119,,E*49
$GPGGA,222118.988,3454.939,N,08102.611,W,0,00,,,M,,M,,*5A
$GPGLL,3454.939,N,08102.611,W,222119.988,V*3B
$GPRMC,222120.988,V,3454.941,N,08102.611,W,22.7,3.85,230119,,E*4D
$GPGGA,222121.988,3454.941,N,08102.611,W,0,00,,,M,,M,,*5F
$GPGLL,3454.941,N,08102.611,W,222122.988,V*3C
$GPRMC,222123.988,V,3454.942,N,08102.612,W,24.3,3.93,230119,,E*4B
$GPGGA,222124.988,3454.942,N,08102.612,W,0,00,,,M,,M,,*5A
$GPGLL,3454.942,N,08102.612,W,222125.988,V*3B
$GPRMC,222126.988,V,3454.944,N,08102.612,W,61.8,3.93,230119,,E*42
$GPGGA,222127.988,3454.944,N,08102.612,W,0,00,,,M,,M,,*5F
$GPGLL,3454.944,N,08102.612,W,222128.988,V*30
$GPRMC,222129.988,V,3454.946,N,08102.612,W,0.5,4.03,230119,,E*7B
$GPGGA,222130.988,3454.946,N,08102.612,W,0,00,,,M,,M,,*5B
$GPGLL,3454.946,N,08102.612,W,222131.988,V*3A
$GPRMC,222132.988,V,3454.948,N,08102.612,W,63.5,3.93,230119,,E*44
$GPGGA,222133.988,3454.948,N,08102.612,W,0,00,,,M,,M,,*56
$GPGLL,3454.948,N,08102.612,W,222134.988,V*31
$GPRMC,222135.988,V,3454.950,N,08102.612,W,10.2,3.89,230119,,E*42
$GPGGA,222136.988,3454.950,N,08102.612,W,0,00,,,M,,M,,*5A
$GPGLL,3454.950,N,08102.612,W,222137.988,V*3B
$GPRMC,222138.988,V,3454.951,N,08102.613,W,98.0,3.89,230119,,E*4D
$GPGGA,222139.988,3454.951,N,08102.613,W,0,00,,,M,,M,,*55
$GPGLL,3454.951,N,08102.613,W,222140.988,V*3B
$GPRMC,222141.988,V,3454.953,N,08102.613,W,45.0,3.84,230119,,E*4C
$GPGGA,222142.988,3454.953,N,08102.613,W,0,00,,,M,,M,,*5B
$GPGLL,3454.953,N,08102.613,W,222143.988,V*3A
$GPRMC,222144.988,V,3454.955,N,08102.614,W,21.2,3.78,230119,,E*4B
$GPGGA,222145.988,3454.955,N,08102.614,W,0,00,,,M,,M,,*5D
$GPGLL,3454.955,N,08102.614,W,222146.988,V*3E
$GPRMC,222147.988,V,3454.956,N,08102.614,W,94.4,3.81,230119,,E*45
$GPGGA,222148.988,3454.956,N,08102.614,W,0,00,,,M,,M,,*53
$GPGLL,3454.956,N,08102.614,W,222149.988,V*32
$GPRMC,222150.988,V,3454.958,N,08102.615,W,74.6,3.77,230119,,E*49
$GPGGA,222151.988,3454.958,N,08102.615,W,0,00,,,M,,M,,*54
$GPGLL,3454.958,N,08102.615,W,222152.988,V*37
$GPRMC,222153.988,V,3454.960,N,08102.616,W,83.1,3.72,230119,,E*48
$GPGGA,222154.988,3454.960,N,08102.616,W,0,00,,,M,,M,,*59
$GPGLL,3454.960,N,08102.616,W,222155.988,V*38
$GPRMC,222156.988,V,3454.961,N,08102.617,W,27.6,3.65,230119,,E*42
$GPGGA,222157.988,3454.961,N,08102.617,W,0,00,,,M,,M,,*5A
$GPGLL,3454.961,N,08102.617,W,222158.988,V*35
$GPRMC,222159.988,V,3454.963,N,08102.618,W,73.3,3.57,230119,,E*45
$GPGGA,222200.988,3454.963,N,08102.618,W,0,00,,,M,,M,,*56
$GPGLL,3454.963,N,08102.618,W,222201.988,V*37
$GPRMC,222202.988,V,3454.964,N,08102.619,W,36.3,3.48,230119,,E*41
$GPGGA,222203.988,3454.964,N,08102.619,W,0,00,,,M,,M,,*53
$GPGLL,3454.964,N,08102.619,W,222204.988,V*34
$GPRMC,222205.988,V,3454.965,N,08102.620,W,92.7,3.50,230119,,E*4E
$GPGGA,222206.988,3454.965,N,08102.620,W,0,00,,,M,,M,,*5D
$GPGLL,3454.965,N,08102.620,W,222207.988,V*3C
$GPRMC,222208.988,V,3454.966,N,08102.622,W,29.8,3.46,230119,,E*4A
$GPGGA,222209.988,3454.966,N,08102.622,W,0,00,,,M,,M,,*53
$GPGLL,3454.966,N,08102.622,W,222210.988,V*3B
$GPRMC,222211.988,V,3454.968,N,08102.622,W,21.8,3.81,230119,,E*4F
$GPGGA,222212.988,3454.968,N,08102.622,W,0,00,,,M,,M,,*57
$GPGLL,3454.968,N,08102.622,W,222213.988,V*36
$GPRMC,222214.988,V,3454.970,N,08102.623,W,92.3,3.81,230119,,E*41
$GPGGA,222215.988,3454.970,N,08102.623,W,0,00,,,M,,M,,*58
$GPGLL,3454.970,N,08102.623,W,222216.988,V*3B
$GPRMC,221855.418,V,4154.929,N,08202.499,W,8.2,2.89,230119,,E*7C
$GPGGA,221856.418,4154.929,N,08202.499,W,0,00,,,M,,M,,*5C
$GPGLL,4154.929,N,08202.499,W,221857.418,V*3D
$GPGSA,A,2,05,16,10,11,08,04,,,,,,,0.8,0.5,0.8*39
$GPGSV,2,1,06,05,70,157,25,16,62,088,65,10,73,116,50,11,66,277,85*73
$GPGSV,2,2,06,08,34,225,25,04,78,298,59*76
$GPRMC,221901.418,V,4154.929,N,08202.501,W,6.4,2.83,230119,,E*7E
$GPGGA,221902.418,4154.929,N,08202.501,W,0,04,0.5,,M,,M,,*73
$GPGLL,4154.929,N,08202.501,W,221903.418,V*3D
$GPGSA,A,2,05,16,10,11,08,04,,,,,,,0.0,0.1,0.7*3A
$GPGSV,2,1,06,05,30,291,23,16,88,269,42,10,32,233,62,11,45,095,61*71
$GPGSV,2,2,06,08,79,336,32,04,35,210,21*7C
$GPRMC,221907.418,V,4154.929,N,08202.503,W,30.1,2.93,230119,,E*4B
$GPGGA,221908.418,4154.929,N,08202.503,W,0,04,0.1,,M,,M,,*7F
$GPGLL,4154.929,N,08202.503,W,221909.418,V*35
$GPGSA,A,3,05,16,10,11,08,04,,,,,,,0.6,1.0,0.6*3C
$GPGSV,2,1,06,05,54,039,60,16,61,243,65,10,16,114,30,11,10,007,80*7D
$GPGSV,2,2,06,08,16,040,89,04,49,087,31*71
$GPRMC,221913.418,V,4154.928,N,08202.504,W,34.3,2.84,230119,,E*48
$GPGGA,221914.418,4154.928,N,08202.504,W,0,04,1.0,,M,,M,,*74
$GPGLL,4154.928,N,08202.504,W,221915.418,V*3E
$GPGSA,A,2,05,16,10,11,08,04,,,,,,,0.0,0.8,0.2*36
$GPGSV,2,1,06,05,63,085,18,16,12,176,64,10,24,053,81,11,66,069,80*71
$GPGSV,2,2,06,08,59,082,44,04,66,191,54*7D
$GPRMC,221919.418,V,4154.929,N,08202.506,W,6.6,3.31,230119,,E*7A
$GPGGA,221920.418,4154.929,N,08202.506,W,0,04,0.8,,M,,M,,*79
$GPGLL,4154.929,N,08202.506,W,221921.418,V*3A
$GPGSA,A,2,05,16,10,11,08,04,,,,,,,0.8,0.9,0.8*35
$GPGSV,2,1,06,05,12,081,49,16,07,079,69,10,50,298,84,11,47,181,25*78
$GPGSV,2,2,06,08,26,123,62,04,86,215,83*70
$GPRMC,221925.418,V,4154.930,N,08202.508,W,79.3,3.26,230119,,E*48
$GPGGA,221926.418,4154.930,N,08202.508,W,0,04,0.9,,M,,M,,*78
$GPGLL,4154.930,N,08202.508,W,221927.418,V*3A
$GPGSA,A,3,05,16,10,11,08,04,,,,,,,0.1,0.1,0.3*3E
$GPGSV,2,1,06,05,71,160,24,16,10,059,77,10,68,243,77,11,20,290,15*73
$GPGSV,2,2,06,08,26,047,69,04,74,197,38*7C
$GPRMC,221931.418,V,4154.930,N,08202.509,W,99.5,3.13,230119,,E*42
$GPGGA,221932.418,4154.930,N,08202.509,W,0,04,0.1,,M,,M,,*74
$GPGLL,4154.930,N,08202.509,W,221933.418,V*3E
$GPGSA,A,2,05,16,10,11,08,04,,,,,,,0.3,0.0,0.8*37
$GPGSV,2,1,06,05,40,003,60,16,28,173,83,10,65,239,84,11,69,202,88*72
$GPGSV,2,2,06,08,05,143,60,04,22,126,53*75
$GPRMC,221937.418,V,4154.931,N,08202.511,W,14.1,3.22,230119,,E*4F
$GPGGA,221938.418,4154.931,N,08202.511,W,0,04,0.0,,M,,M,,*77
$GPGLL,4154.931,N,08202.511,W,221939.418,V*3C
$GPGSA,A,2,05,16,10,11,08,04,,,,,,,0.3,0.6,0.1*38
$GPGSV,2,1,06,05,48,317,78,16,46,196,22,10,44,031,66,11,10,126,66*73
$GPGSV,2,2,06,08,40,342,69,04,63,067,25*7E
$GPRMC,221943.418,V,4154.932,N,08202.513,W,53.8,3.26,230119,,E*43
$GPGGA,221944.418,4154.932,N,08202.513,W,0,04,0.6,,M,,M,,*7B
$GPGLL,4154.932,N,08202.513,W,221945.418,V*36
$GPGSA,A,3,05,16,10,11,08,04,,,,,,,0.9,0.0,0.8*3C
$GPGSV,2,1,06,05,51,339,63,16,49,133,89,10,48,340,24,11,83,043,43*7C
$GPGSV,2,2,06,08,19,069,70,04,42,112,42*71
$GPRMC,221949.418,V,4154.933,N,08202.514,W,45.3,3.63,230119,,E*42
$GPGGA,221950.418,4154.933,N,08202.514,W,0,04,0.0,,M,,M,,*7E
$GPGLL,4154.933,N,08202.514,W,221951.418,V*35
$GPGSA,A,2,05,16,10,11,08,04,,,,,,,0.7,0.9,0.8*3A
$GPGSV,2,1,06,05,72,058,27,16,23,091,51,10,49,311,23,11,41,347,89*74
$GPGSV,2,2,06,08,43,152,41,04,64,169,54*7A
$GPRMC,221955.418,V,4154.935,N,08202.515,W,0.1,3.64,230119,,E*7C
$GPGGA,221956.418,4154.935,N,08202.515,W,0,04,0.9,,M,,M,,*76
$GPGLL,4154.935,N,08202.515,W,221957.418,V*34
$GPGSA,A,2,05,16,10,11,08,04,,,,,,,0.0,0.9,0.6*33
$GPGSV,2,1,06,05,75,336,32,16,80,221,22,10,59,013,72,11,71,198,56*7D
$GPGSV,2,2,06,08,40,236,74,04,35,012,55*76
$GPRMC,222001.418,V,4154.936,N,08202.516,W,2.9,3.62,230119,,E*7B
$GPGGA,222002.418,4154.936,N,08202.516,W,0,04,0.9,,M,,M,,*7D
$GPGLL,4154.936,N,08202.516,W,222003.418,V*3F
$GPGSA,A,2,05,16,10,11,08,04,,,,,,,0.5,0.9,0.8*38
$GPGSV,2,1,06,05,65,278,29,16,13,317,77,10,29,018,74,11,25,269,48*7A
$GPGSV,2,2,06,08,09,144,44,04,62,213,28*75
$GPRMC,222007.418,V,4154.938,N,08202.517,W,94.1,3.61,230119,,E*46
$GPGGA,222008.418,4154.938,N,08202.517,W,0,04,0.9,,M,,M,,*78
$GPGLL,4154.938,N,08202.517,W,222009.418,V*3A
$GPGSA,A,3,05,16,10,11,08,04,,,,,,,0.9,0.0,0.1*35
$GPGSV,2,1,06,05,85,002,19,16,48,174,40,10,11,316,71,11,39,109,18*7B
$GPGSV,2,2,06,08,85,332,31,04,50,198,65*78
$GPRMC,222013.418,V,4154.939,N,08202.518,W,17.2,3.65,230119,,E*41
$GPGGA,222014.418,4154.939,N,08202.518,W,0,04,0.0,,M,,M,,*72
$GPGLL,4154.939,N,08202.518,W,222015.418,V*39
$GPGSA,A,3,05,16,10,11,08,04,,,,,,,0.3,0.4,0.5*3F
$GPGSV,2,1,06,05,31,188,39,16,56,105,51,10,25,313,78,11,35,149,40*72
$GPGSV,2,2,06,08,78,264,53,04,55,297,42*70
$GPRMC,222019.418,V,4154.941,N,08202.518,W,98.2,3.75,230119,,E*42
$GPGGA,222020.418,4154.941,N,08202.518,W,0,04,0.4,,M,,M,,*7E
$GPGLL,4154.941,N,08202.518,W,222021.418,V*31
$GPGSA,A,3,05,16,10,11,08,04,,,,,,,0.0,0.3,0.5*3B
$GPGSV,2,1,06,05,17,223,89,16,19,197,39,10,89,345,49,11,30,147,44*79
$GPGSV,2,2,06,08,73,125,42,04,88,208,56*7E
$GPRMC,222025.418,V,4154.942,N,08202.519,W,76.9,3.86,230119,,E*48
$GPGGA,222026.418,4154.942,N,08202.519,W,0,04,0.3,,M,,M,,*7D
$GPGLL,4154.942,N,08202.519,W,222027.418,V*35
$GPGSA,A,2,05,16,10,11,08,04,,,,,,,1.0,0.7,0.1*3B
$GPGSV,2,1,06,05,09,160,48,16,70,254,31,10,40,266,54,11,05,331,89*79
$GPGSV,2,2,06,08,36,230,15,04,45,090,78*74
$GPRMC,222031.418,V,4154.944,N,08202.519,W,93.1,3.80,230119,,E*4E
$GPGGA,222032.418,4154.944,N,08202.519,W,0,04,0.7,,M,,M,,*7A
$GPGLL,4154.944,N,08202.519,W,222033.418,V*36
$GPGSA,A,2,05,16,10,11,08,04,,,,,,,0.1,0.9,0.0*34
$GPGSV,2,1,06,05,32,257,43,16,29,033,78,10,85,038,25,11,64,011,35*78
$GPGSV,2,2,06,08,81,338,87,04,78,014,62*73
$GPRMC,222037.418,V,4154.946,N,08202.520,W,3.4,3.81,230119,,E*7D
$GPGGA,222038.418,4154.946,N,08202.520,W,0,04,0.9,,M,,M,,*76
$GPGLL,4154.946,N,08202.520,W,222039.418,V*34
$GPGSA,A,2,05,16,10,11,08,04,,,,,,,0.4,0.8,0.5*35
$GPGSV,2,1,06,05,68,151,89,16,66,120,88,10,55,198,76,11,46,313,44*74
$GPGSV,2,2,06,08,56,336,36,04,47,145,54*71
$GPRMC,222043.418,V,4154.948,N,08202.520,W,7.2,3.73,230119,,E*7F
$GPGGA,222044.418,4154.948,N,08202.520,W,0,04,0.8,,M,,M,,*72
$GPGLL,4154.948,N,08202.520,W,222045.418,V*31
$GPGSA,A,2,05,16,10,11,08,04,,,,,,,0.9,0.6,0.0*33
$GPGSV,2,1,06,05,50,254,62,16,41,340,22,10,82,203,60,11,11,165,25*77
$GPGSV,2,2,06,08,27,292,77,04,16,181,72*75
$GPRMC,222049.418,V,4154.949,N,08202.521,W,28.9,3.65,230119,,E*44
$GPGGA,222050.418,4154.949,N,08202.521,W,0,04,0.6,,M,,M,,*79
$GPGLL,4154.949,N,08202.521,W,222051.418,V*34
$GPGSA,A,2,05,16,10,11,08,04,,,,,,,0.4,1.0,0.6*3F
$GPGSV,2,1,06,05,19,145,86,16,52,226,72,10,59,280,21,11,42,289,71*7B
$GPGSV,2,2,06,08,89,020,25,04,63,157,67*70
$GPRMC,222055.418,V,4154.951,N,08202.522,W,60.4,3.60,230119,,E*47
$GPGGA,222056.418,4154.951,N,08202.522,W,0,04,1.0,,M,,M,,*72
$GPGLL,4154.951,N,08202.522,W,222057.418,V*38
$GPGSA,A,2,05,16,10,11,08,04,,,,,,,0.9,0.1,0.5*31
$GPGSV,2,1,06,05,71,078,85,16,36,188,16,10,18,156,76,11,12,232,88*72
$GPGSV,2,2,06,08,81,033,33,04,80,348,47*7E
$GPRMC,222101.418,V,4154.952,N,08202.524,W,80.3,3.47,230119,,E*4E
$GPGGA,222102.418,4154.952,N,08202.524,W,0,04,0.1,,M,,M,,*77
$GPGLL,4154.952,N,08202.524,W,222103.418,V*3D
$GPGSA,A,2,05,16,10,11,08,04,,,,,,,0.8,0.9,0.4*39
$GPGSV,2,1,06,05,85,106,85,16,29,203,58,10,76,304,28,11,13,052,40*72
$GPGSV,2,2,06,08,69,007,62,04,12,301,81*77
$GPRMC,222107.418,V,4154.952,N,08202.526,W,17.4,3.19,230119,,E*48
$GPGGA,222108.418,4154.952,N,08202.526,W,0,04,0.9,,M,,M,,*77
$GPGLL,4154.952,N,08202.526,W,222109.418,V*35
$GPGSA,A,2,05,16,10,11,08,04,,,,,,,0.6,0.8,0.3*31
$GPGSV,2,1,06,05,17,099,57,16,54,260,76,10,78,057,65,11,18,152,22*7E
$GPGSV,2,2,06,08,83,036,69,04,31,254,35*75
$GPRMC,222113.418,V,4154.953,N,08202.527,W,86.1,3.23,230119,,E*49
$GPGGA,222114.418,4154.953,N,08202.527,W,0,04,0.8,,M,,M,,*7B
$GPGLL,4154.953,N,08202.527,W,222115.418,V*38
$GPGSA,A,3,05,16,10,11,08,04,,,,,,,1.0,1.0,0.1*3C
$GPGSV,2,1,06,05,59,329,27,16,83,206,21,10,87,113,36,11,70,265,84*71
$GPGSV,2,2,06,08,54,172,30,04,78,104,48*73
$GPRMC,222119.418,V,4154.953,N,08202.529,W,81.8,3.15,230119,,E*46
$GPGGA,222120.418,4154.953,N,08202.529,W,0,04,1.0,,M,,M,,*7B
$GPGLL,4154.953,N,08202.529,W,222121.418,V*31
$GPGSA,A,3,05,16,10,11,08,04,,,,,,,1.0,0.3,0.5*3A
$GPGSV,2,1,06,05,33,301,54,16,13,280,51,10,67,219,38,11,19,304,78*70
$GPGSV,2,2,06,08,13,133,28,04,09,285,89*7D
$GPRMC,222125.418,V,4154.954,N,08202.531,W,10.1,3.23,230119,,E*43
$GPGGA,222126.418,4154.954,N,08202.531,W,0,04,0.3,,M,,M,,*71
$GPGLL,4154.954,N,08202.531,W,222127.418,V*39
$GPGSA,A,2,05,16,10,11,08,04,,,,,,,0.3,0.1,0.5*3B
$GPGSV,2,1,06,05,88,286,35,16,05,231,25,10,35,215,34,11,65,245,74*73
$GPGSV,2,2,06,08,28,088,67,04,83,152,78*7A
$GPRMC,222131.418,V,4154.954,N,08202.532,W,82.6,2.98,230119,,E*48
$GPGGA,222132.418,4154.954,N,08202.532,W,0,04,0.1,,M,,M,,*75
$GPGLL,4154.954,N,08202.532,W,222133.418,V*3F
$GPGSA,A,2,05,16,10,11,08,04,,,,,,,0.2,0.3,0.4*39
$GPGSV,2,1,06,05,26,114,76,16,32,331,58,10,07,072,27,11,44,007,72*76
$GPGSV,2,2,06,08,62,200,56,04,69,226,41*7A
$GPRMC,222137.418,V,4154.954,N,08202.534,W,31.4,3.04,230119,,E*46
$GPGGA,222138.418,4154.954,N,08202.534,W,0,04,0.3,,M,,M,,*7B
$GPGLL,4154.954,N,08202.534,W,222139.418,V*33
$GPGSA,A,2,05,16,10,11,08,04,,,,,,,0.6,0.1,0.8*33
$GPGSV,2,1,06,05,78,026,55,16,12,299,69,10,54,236,35,11,66,062,40*7A
$GPGSV,2,2,06,08,88,259,80,04,36,035,39*7C
$GPRMC,222143.418,V,4154.954,N,08202.536,W,63.3,3.00,230119,,E*43
$GPGGA,222144.418,4154.954,N,08202.536,W,0,04,0.1,,M,,M,,*70
$GPGLL,4154.954,N,08202.536,W,222145.418,V*3A
$GPGSA,A,2,05,16,10,11,08,04,,,,,,,0.7,0.3,0.3*3B
$GPGSV,2,1,06,05,73,355,83,16,83,244,55,10,19,196,65,11,45,161,39*72
$GPGSV,2,2,06,08,89,176,57,04,43,308,79*72
$GPRMC,222149.418,V,4154.954,N,08202.538,W,0.1,2.92,230119,,E*7A
$GPGGA,222150.418,4154.954,N,08202.538,W,0,04,0.3,,M,,M,,*79
$GPGLL,4154.954,N,08202.538,W,222151.418,V*31
$GPGSA,A,3,05,16,10,11,08,04,,,,,,,0.3,0.5,0.6*3D
$GPGSV,2,1,06,05,17,133,46,16,81,038,80,10,16,221,33,11,58,034,72*79
$GPGSV,2,2,06,08,44,029,61,04,10,189,60*78
$GPRMC,222155.418,V,4154.954,N,08202.540,W,80.0,2.93,230119,,E*40
$GPGGA,222156.418,4154.954,N,08202.540,W,0,04,0.5,,M,,M,,*76
$GPGLL,4154.954,N,08202.540,W,222157.418,V*38
$GPGSA,A,2,05,16,10,11,08,04,,,,,,,0.1,0.5,0.7*3F
$GPGSV,2,1,06,05,48,243,15,16,38,348,45,10,72,092,88,11,47,353,43*78
$GPGSV,2,2,06,08,85,046,39,04,55,158,33*7A
$GPRMC,222201.418,V,4154.953,N,08202.541,W,85.4,2.85,230119,,E*42
$GPGGA,222202.418,4154.953,N,08202.541,W,0,04,0.5,,M,,M,,*72
$GPGLL,4154.953,N,08202.541,W,222203.418,V*3C
$GPGSA,A,3,05,16,10,11,08,04,,,,,,,0.3,0.4,0.3*39
$GPGSV,2,1,06,05,12,266,74,16,41,035,33,10,43,255,78,11,10,307,22*71
$GPGSV,2,2,06,08,88,072,81,04,59,326,75*76
$GPRMC,222207.418,V,4154.953,N,08202.543,W,17.6,2.90,230119,,E*4B
$GPGGA,222208.418,4154.953,N,08202.543,W,0,04,0.4,,M,,M,,*7B
$GPGLL,4154.953,N,08202.543,W,222209.418,V*34
$GPGSA,A,3,05,16,10,11,08,04,,,,,,,0.8,0.4,0.6*37
$GPGSV,2,1,06,05,40,026,66,16,16,316,46,10,74,271,57,11,32,144,19*73
$GPGSV,2,2,06,08,82,081,66,04,18,171,36*7B
$GPRMC,222213.418,V,4154.953,N,08202.545,W,64.3,2.89,230119,,E*41
$GPGGA,222214.418,4154.953,N,08202.545,W,0,04,0.4,,M,,M,,*70
$GPGLL,4154.953,N,08202.545,W,222215.418,V*3F
$GPGSA,A,3,05,16,10,11,08,04,,,,,,,0.0,0.6,0.9*32
$GPGSV,2,1,06,05,24,254,27,16,89,144,42,10,80,213,36,11,23,231,35*73
$GPGSV,2,2,06,08,16,157,50,04,79,333,85*72
$GPRMC,222219.418,V,4154.952,N,08202.547,W,3.0,2.95,230119,,E*77
$GPGGA,222220.418,4154.952,N,08202.547,W,0,04,0.6,,M,,M,,*76
$GPGLL,4154.952,N,08202.547,W,222221.418,V*3B
$GPGSA,A,2,05,16,10,11,08,04,,,,,,,0.7,0.2,0.4*3D
$GPGSV,2,1,06,05,37,048,60,16,79,019,42,10,86,063,44,11,62,194,68*7C
$GPGSV,2,2,06,08,33,259,59,04,55,168,48*72
$GPRMC,222225.418,V,4154.952,N,08202.548,W,84.3,2.87,230119,,E*48
$GPGGA,222226.418,4154.952,N,08202.548,W,0,04,0.2,,M,,M,,*7B
$GPGLL,4154.952,N,08202.548,W,222227.418,V*32
$GPGSA,A,2,05,16,10,11,08,04,,,,,,,0.3,0.3,0.5*39
$GPGSV,2,1,06,05,11,256,62,16,52,330,38,10,21,284,20,11,61,087,30*72
$GPGSV,2,2,06,08,61,102,27,04,89,118,37*7F
$GPRMC,222231.418,V,4154.952,N,08202.550,W,68.4,2.94,230119,,E*43
$GPGGA,222232.418,4154.952,N,08202.550,W,0,04,0.3,,M,,M,,*76
$GPGLL,4154.952,N,08202.550,W,222233.418,V*3E
$GPGSA,A,3,05,16,10,11,08,04,,,,,,,0.6,0.9,0.7*35
$GPGSV,2,1,06,05,12,263,56,16,54,204,77,10,39,343,57,11,30,141,78*7B
$GPGSV,2,2,06,08,74,013,64,04,08,201,80*73
$GPRMC,222237.418,V,4154.952,N,08202.552,W,82.0,2.94,230119,,E*47
$GPGGA,222238.418,4154.952,N,08202.552,W,0,04,0.9,,M,,M,,*74
$GPGLL,4154.952,N,08202.552,W,222239.418,V*36
$GPGSA,A,2,05,16,10,11,08,04,,,,,,,0.9,0.0,0.3*36
$GPGSV,2,1,06,05,28,053,42,16,62,047,39,10,27,085,25,11,61,324,38*7E
$GPGSV,2,2,06,08,64,296,88,04,46,253,53*7C
$GPRMC,222243.418,V,4154.952,N,08202.554,W,45.4,3.01,230119,,E*40
$GPGGA,222244.418,4154.952,N,08202.554,W,0,04,0.0,,M,,M,,*70
$GPGLL,4154.952,N,08202.554,W,222245.418,V*3B
$GPGSA,A,3,05,16,10,11,08,04,,,,,,,1.0,0.5,0.4*3D
$GPGSV,2,1,06,05,34,303,62,16,23,064,46,10,42,305,25,11,46,167,45*79
$GPGSV,2,2,06,08,64,171,37,04,21,152,22*77
$GPRMC,222249.418,V,4154.952,N,08202.556,W,78.2,3.05,230119,,E*44
$GPGGA,222250.418,4154.952,N,08202.556,W,0,04,0.5,,M,,M,,*72
$GPGLL,4154.952,N,08202.556,W,222251.418,V*3C
$GPGSA,A,2,05,16,10,11,08,04,,,,,,,0.2,0.0,0.1*3F
$GPGSV,2,1,06,05,46,125,87,16,12,213,73,10,19,005,18,11,70,026,85*79
$GPGSV,2,2,06,08,10,178,25,04,24,322,86*70
$GPRMC,222255.418,V,4154.952,N,08202.557,W,30.8,3.01,230119,,E*4A
$GPGGA,222256.418,4154.952,N,08202.557,W,0,04,0.0,,M,,M,,*70
$GPGLL,4154.952,N,08202.557,W,222257.418,V*3B
$GPGSA,A,2,05,16,10,11,08,04,,,,,,,0.9,0.8,0.5*38
$GPGSV,2,1,06,05,30,172,29,16,24,345,37,10,05,088,26,11,45,154,15*77
$GPGSV,2,2,06,08,11,301,57,04,64,139,36*7F
$GPRMC,222301.418,V,4154.952,N,08202.559,W,70.5,3.02,230119,,E*4E
$GPGGA,222302.418,4154.952,N,08202.559,W,0,04,0.8,,M,,M,,*76
$GPGLL,4154.952,N,08202.559,W,222303.418,V*35
$GPGSA,A,2,05,16,10,11,08,04,,,,,,,0.7,0.5,0.3*3D
$GPGSV,2,1,06,05,53,032,73,16,07,170,52,10,43,117,87,11,22,204,22*73
$GPGSV,2,2,06,08,22,209,28,04,37,174,66*74
$GPRMC,222307.418,V,4154.952,N,08202.561,W,99.2,2.97,230119,,E*4E
$GPGGA,222308.418,4154.952,N,08202.561,W,0,04,0.5,,M,,M,,*7A
$GPGLL,4154.952,N,08202.561,W,222309.418,V*34
$GPGSA,A,3,05,16,10,11,08,04,,,,,,,0.8,0.6,0.8*3B
$GPGSV,2,1,06,05,33,118,23,16,85,002,19,10,82,039,87,11,17,042,31*7C
$GPGSV,2,2,06,08,54,238,80,04,18,245,21*7A
$GPRMC,222313.418,V,4154.952,N,08202.563,W,25.8,3.00,230119,,E*4B
$GPGGA,222314.418,4154.952,N,08202.563,W,0,04,0.6,,M,,M,,*76
$GPGLL,4154.952,N,08202.563,W,222315.418,V*3B
$GPGSA,A,2,05,16,10,11,08,04,,,,,,,0.5,0.2,0.5*3E
$GPGSV,2,1,06,05,71,263,89,16,81,217,74,10,53,352,79,11,84,265,43*77
$GPGSV,2,2,06,08,22,062,44,04,70,158,67*7D
$GPRMC,222319.418,V,4154.952,N,08202.565,W,48.8,2.92,230119,,E*46
$GPGGA,222320.418,4154.952,N,08202.565,W,0,04,0.2,,M,,M,,*73
$GPGLL,4154.952,N,08202.565,W,222321.418,V*3A
$GPGSA,A,2,05,16,10,11,08,04,,,,,,,0.6,1.0,0.6*3D
$GPGSV,2,1,06,05,36,183,75,16,74,243,73,10,64,342,66,11,18,272,33*79
$GPGSV,2,2,06,08,68,310,52,04,12,091,53*75
$GPRMC,222325.418,V,4154.951,N,08202.566,W,51.2,2.83,230119,,E*4B
$GPGGA,222326.418,4154.951,N,08202.566,W,0,04,1.0,,M,,M,,*76
$GPGLL,4154.951,N,08202.566,W,222327.418,V*3C
$GPGSA,A,2,05,16,10,11,08,04,,,,,,,0.6,0.2,0.9*31
$GPGSV,2,1,06,05,25,098,43,16,23,125,20,10,26,087,53,11,85,152,51*79
$GPGSV,2,2,06,08,25,066,80,04,79,078,68*73
$GPRMC,222331.418,V,4154.951,N,08202.568,W,41.2,2.94,230119,,E*47
$GPGGA,222332.418,4154.951,N,08202.568,W,0,04,0.2,,M,,M,,*7E
$GPGLL,4154.951,N,08202.568,W,222333.418,V*37
$GPGSA,A,3,05,16,10,11,08,04,,,,,,,0.6,0.4,0.9*36
$GPGSV,2,1,06,05,41,213,39,16,89,114,38,10,80,261,48,11,25,219,68*7C
$GPGSV,2,2,06,08,33,219,16,04,14,000,48*77
$GPRMC,222337.418,V,4154.951,N,08202.570,W,78.8,2.88,230119,,E*45
$GPGGA,222338.418,4154.951,N,08202.570,W,0,04,0.4,,M,,M,,*7B
$GPGLL,4154.951,N,08202.570,W,222339.418,V*34
$GPGSA,A,2,05,16,10,11,08,04,,,,,,,0.6,0.4,0.7*39
$GPGSV,2,1,06,05,84,356,16,16,83,288,48,10,81,157,61,11,68,041,18*7E
$GPGSV,2,2,06,08,22,271,89,04,46,184,58*74
$GPRMC,222343.418,V,4154.950,N,08202.572,W,57.5,2.79,230119,,E*4B
$GPGGA,222344.418,4154.950,N,08202.572,W,0,04,0.4,,M,,M,,*73
$GPGLL,4154.950,N,08202.572,W,222345.418,V*3C
$GPGSA,A,2,05,16,10,11,08,04,,,,,,,0.3,0.6,0.0*39
$GPGSV,2,1,06,05,19,004,52,16,36,340,69,10,17,220,29,11,80,226,47*79
$GPGSV,2,2,06,08,74,065,19,04,17,068,41*76
$GPRMC,222349.418,V,4154.949,N,08202.573,W,32.4,2.73,230119,,E*40
$GPGGA,222350.418,4154.949,N,08202.573,W,0,04,0.6,,M,,M,,*7D
$GPGLL,4154.949,N,08202.573,W,222351.418,V*30
$GPGSA,A,2,05,16,10,11,08,04,,,,,,,0.1,0.8,0.1*34
$GPGSV,2,1,06,05,39,078,42,16,31,208,62,10,65,226,39,11,47,114,59*74
$GPGSV,2,2,06,08,36,317,66,04,34,028,88*7E
$GPRMC,222355.418,V,4154.948,N,08202.575,W,9.6,2.65,230119,,E*77
$GPGGA,222356.418,4154.948,N,08202.575,W,0,04,0.8,,M,,M,,*72
$GPGLL,4154.948,N,08202.575,W,222357.418,V*31
$GPGSA,A,3,05,16,10,11,08,04,,,,,,,0.8,0.7,0.8*3A
$GPGSV,2,1,06,05,77,008,75,16,22,224,21,10,87,217,36,11,67,258,55*72
$GPGSV,2,2,06,08,60,088,15,04,81,104,25*7A
$GPRMC,222401.418,V,4154.947,N,08202.576,W,95.9,2.60,230119,,E*42
$GPGGA,222402.418,4154.947,N,08202.576,W,0,04,0.7,,M,,M,,*77
$GPGLL,4154.947,N,08202.576,W,222403.418,V*3B
$GPGSA,A,2,05,16,10,11,08,04,,,,,,,0.6,0.6,1.0*3D
$GPGSV,2,1,06,05,73,013,37,16,54,316,30,10,67,098,19,11,55,209,58*75
$GPGSV,2,2,06,08,43,027,80,04,11,265,86*76
$GPRMC,222407.418,V,4154.946,N,08202.578,W,13.0,2.50,230119,,E*4F
$GPGGA,222408.418,4154.946,N,08202.578,W,0,04,0.6,,M,,M,,*73
$GPGLL,4154.946,N,08202.578,W,222409.418,V*3E
$GPGSA,A,3,05,16,10,11,08,04,,,,,,,0.7,0.1,0.4*3F
$GPGSV,2,1,06,05,87,119,22,16,47,228,64,10,05,200,61,11,10,226,28*7D
$GPGSV,2,2,06,08,62,239,16,04,20,328,87*7C
$GPRMC,222413.418,V,4154.945,N,08202.579,W,68.3,2.52,230119,,E*45
$GPGGA,222414.418,4154.945,N,08202.579,W,0,04,0.1,,M,,M,,*7B
$GPGLL,4154.945,N,08202.579,W,222415.418,V*31
$GPGSA,A,2,05,16,10,11,08,04,,,,,,,0.9,0.7,0.5*37
$GPGSV,2,1,06,05,06,156,47,16,46,081,47,10,60,073,57,11,80,236,79*71
$GPGSV,2,2,06,08,57,295,25,04,53,100,53*79
$GPRMC,222419.418,V,4154.944,N,08202.580,W,42.8,2.63,230119,,E*49
$GPGGA,222420.418,4154.944,N,08202.580,W,0,04,0.7,,M,,M,,*7D
$GPGLL,4154.944,N,08202.580,W,222421.418,V*31
$GPGSA,A,3,05,16,10,11,08,04,,,,,,,0.7,0.2,0.7*3F
$GPGSV,2,1,06,05,45,015,81,16,54,036,60,10,09,006,30,11,50,183,34*75
$GPGSV,2,2,06,08,22,038,43,04,76,201,69*72
$GPRMC,222425.418,V,4154.943,N,08202.582,W,88.1,2.56,230119,,E*4A
$GPGGA,222426.418,4154.943,N,08202.582,W,0,04,0.2,,M,,M,,*7B
$GPGLL,4154.943,N,08202.582,W,222427.418,V*32
$GPGSA,A,2,05,16,10,11,08,04,,,,,,,0.8,0.6,0.6*34
$GPGSV,2,1,06,05,81,088,35,16,82,049,85,10,33,344,81,11,82,113,18*70
$GPGSV,2,2,06,08,80,250,47,04,30,314,21*79
$GPRMC,222431.418,V,4154.942,N,08202.583,W,6.7,2.57,230119,,E*7E
$GPGGA,222432.418,4154.942,N,08202.583,W,0,04,0.6,,M,,M,,*7A
$GPGLL,4154.942,N,08202.583,W,222433.418,V*37
$GPGSA,A,2,05,16,10,11,08,04,,,,,,,0.0,0.8,0.3*37
$GPGSV,2,1,06,05,60,121,38,16,45,287,72,10,58,222,36,11,70,068,51*7E
$GPGSV,2,2,06,08,32,024,71,04,48,256,16*78
$GPRMC,222437.418,V,4154.941,N,08202.585,W,34.2,2.57,230119,,E*49
$GPGGA,222438.418,4154.941,N,08202.585,W,0,04,0.8,,M,,M,,*7B
$GPGLL,4154.941,N,08202.585,W,222439.418,V*38
$GPGSA,A,2,05,16,10,11,08,04,,,,,,,0.1,0.2,1.0*3E
$GPGSV,2,1,06,05,70,350,67,16,30,133,73,10,05,213,57,11,32,123,82*75
$GPGSV,2,2,06,08,30,129,79,04,82,222,52*7B
$GPRMC,222443.418,V,4154.940,N,08202.586,W,71.6,2.68,230119,,E*41
$GPGGA,222444.418,4154.940,N,08202.586,W,0,04,0.2,,M,,M,,*78
$GPGLL,4154.940,N,08202.586,W,222445.418,V*31
$GPGSA,A,2,05,16,10,11,08,04,,,,,,,0.8,0.5,0.6*37
$GPGSV,2,1,06,05,44,210,75,16,27,032,78,10,66,264,23,11,76,194,32*78
$GPGSV,2,2,06,08,06,282,69,04,05,201,70*73
$GPRMC,222449.418,V,4154.939,N,08202.588,W,95.8,2.64,230119,,E*43
$GPGGA,222450.418,4154.939,N,08202.588,W,0,04,0.5,,M,,M,,*7A
$GPGLL,4154.939,N,08202.588,W,222451.418,V*34
$GPGSA,A,2,05,16,10,11,08,04,,,,,,,0.2,1.0,0.4*3B
$GPGSV,2,1,06,05,19,128,71,16,55,344,72,10,43,169,24,11,80,091,29*78
$GPGSV,2,2,06,08,37,175,54,04,63,019,46*7A
$GPRMC,222455.418,V,4154.938,N,08202.589,W,22.4,2.62,230119,,E*48
$GPGGA,222456.418,4154.938,N,08202.589,W,0,04,1.0,,M,,M,,*78
$GPGLL,4154.938,N,08202.589,W,222457.418,V*32
$GPGSA,A,2,05,16,10,11,08,04,,,,,,,0.6,0.5,0.8*37
$GPGSV,2,1,06,05,49,265,70,16,22,004,36,10,81,313,44,11,23,043,41*7E
$GPGSV,2,2,06,08,08,073,47,04,58,277,63*76
$GPRMC,222501.418,V,4154.936,N,08202.590,W,20.9,2.19,230119,,E*4D
$GPGGA,222502.418,4154.936,N,08202.590,W,0,04,0.5,,M,,M,,*7A
$GPGLL,4154.936,N,08202.590,W,222503.418,V*34
$GPGSA,A,3,05,16,10,11,08,04,,,,,,,0.2,0.8,0.6*31
$GPGSV,2,1,06,05,86,319,32,16,48,105,84,10,12,259,48,11,09,032,40*72
$GPGSV,2,2,06,08,07,346,19,04,88,174,63*7A
$GPRMC,222507.418,V,4154.934,N,08202.590,W,5.6,2.19,230119,,E*71
$GPGGA,222508.418,4154.934,N,08202.590,W,0,04,0.8,,M,,M,,*7F
$GPGLL,4154.934,N,08202.590,W,222509.418,V*3C
$GPGSA,A,2,05,16,10,11,08,04,,,,,,,0.5,0.5,0.5*39
$GPGSV,2,1,06,05,25,300,31,16,41,227,76,10,17,349,82,11,38,229,61*7D
$GPGSV,2,2,06,08,32,309,40,04,28,150,57*70
$GPRMC,222513.418,V,4154.933,N,08202.591,W,80.2,2.18,230119,,E*4A
$GPGGA,222514.418,4154.933,N,08202.591,W,0,04,0.5,,M,,M,,*79
$GPGLL,4154.933,N,08202.591,W,222515.418,V*37
$GPGSA,A,3,05,16,10,11,08,04,,,,,,,0.1,0.5,0.1*38
$GPGSV,2,1,06,05,11,018,32,16,68,263,75,10,30,000,56,11,29,021,70*73
$GPGSV,2,2,06,08,16,001,53,04,73,241,76*71
$GPRMC,222519.418,V,4154.931,N,08202.592,W,55.0,2.35,230119,,E*44
$GPGGA,222520.418,4154.931,N,08202.592,W,0,04,0.5,,M,,M,,*7F
$GPGLL,4154.931,N,08202.592,W,222521.418,V*31
$GPGSA,A,2,05,16,10,11,08,04,,,,,,,0.4,0.3,0.9*32
$GPGSV,2,1,06,05,23,101,51,16,34,102,23,10,60,216,20,11,81,317,78*7D
$GPGSV,2,2,06,08,59,013,78,04,74,354,43*74
$GPRMC,222525.418,V,4154.929,N,08202.593,W,11.9,2.35,230119,,E*4A
$GPGGA,222526.418,4154.929,N,08202.593,W,0,04,0.3,,M,,M,,*77
$GPGLL,4154.929,N,08202.593,W,222527.418,V*3F
$GPGSA,A,2,05,16,10,11,08,04,,,,,,,0.7,0.5,0.1*3F
$GPGSV,2,1,06,05,48,292,40,16,61,177,89,10,49,079,89,11,31,239,66*71
$GPGSV,2,2,06,08,75,151,23,04,83,140,35*7D
$GPRMC,222531.418,V,4154.928,N,08202.594,W,47.4,2.40,230119,,E*45
$GPGGA,222532.418,4154.928,N,08202.594,W,0,04,0.5,,M,,M,,*72
$GPGLL,4154.928,N,08202.594,W,222533.418,V*3C
$GPGSA,A,3,05,16,10,11,08,04,,,,,,,1.0,0.1,0.5*38
$GPGSV,2,1,06,05,19,191,50,16,59,246,35,10,48,185,27,11,40,157,28*79
$GPGSV,2,2,06,08,42,257,28,04,55,067,72*7B
$GPRMC,222537.418,V,4154.927,N,08202.595,W,59.9,2.50,230119,,E*4E
$GPGGA,222538.418,4154.927,N,08202.595,W,0,04,0.1,,M,,M,,*72
$GPGLL,4154.927,N,08202.595,W,222539.418,V*38
$GPGSA,A,2,05,16,10,11,08,04,,,,,,,0.7,0.8,0.4*37
$GPGSV,2,1,06,05,09,336,39,16,56,332,64,10,21,354,29,11,16,029,29*74
$GPGSV,2,2,06,08,29,210,33,04,43,221,40*79
$GPRMC,222543.418,V,4154.925,N,08202.596,W,81.0,2.49,230119,,E*48
$GPGGA,222544.418,4154.925,N,08202.596,W,0,04,0.8,,M,,M,,*71
$GPGLL,4154.925,N,08202.596,W,222545.418,V*32
$GPGSA,A,2,05,16,10,11,08,04,,,,,,,0.4,0.2,0.3*39
$GPGSV,2,1,06,05,80,010,38,16,77,339,73,10,29,127,84,11,20,064,71*75
$GPGSV,2,2,06,08,05,088,80,04,80,070,60*77
$GPRMC,222549.418,V,4154.924,N,08202.598,W,3.5,2.54,230119,,E*7E
$GPGGA,222550.418,4154.924,N,08202.598,W,0,04,0.2,,M,,M,,*71
$GPGLL,4154.924,N,08202.598,W,222551.418,V*38
$GPGSA,A,3,05,16,10,11,08,04,,,,,,,0.6,0.0,1.0*3A
$GPGSV,2,1,06,05,22,219,22,16,57,355,87,10,19,282,49,11,80,014,27*7E
$GPGSV,2,2,06,08,17,036,75,04,79,242,84*74
$GPRMC,222555.418,V,4154.923,N,08202.599,W,74.8,2.48,230119,,E*45
$GPGGA,222556.418,4154.923,N,08202.599,W,0,04,0.0,,M,,M,,*73
$GPGLL,4154.923,N,08202.599,W,222557.418,V*38
$GPGSA,A,3,05,16,10,11,08,04,,,,,,,0.9,0.2,0.6*30
$GPGSV,2,1,06,05,85,266,19,16,20,338,38,10,20,337,51,11,66,047,25*7C
$GPGSV,2,2,06,08,18,298,46,04,31,054,61*7F
$GPRMC,222601.418,V,4154.922,N,08202.600,W,41.2,2.58,230119,,E*48
$GPGGA,222602.418,4154.922,N,08202.600,W,0,04,0.2,,M,,M,,*71
$GPGLL,4154.922,N,08202.600,W,222603.418,V*38
$GPGSA,A,2,05,16,10,11,08,04,,,,,,,0.6,0.9,0.2*31
$GPGSV,2,1,06,05,79,329,74,16,45,031,77,10,73,013,24,11,79,320,71*70
$GPGSV,2,2,06,08,16,006,22,04,87,081,56*77
$GPRMC,222607.418,V,4154.921,N,08202.602,W,61.2,2.69,230119,,E*4F
$GPGGA,222608.418,4154.921,N,08202.602,W,0,04,0.9,,M,,M,,*71
$GPGLL,4154.921,N,08202.602,W,222609.418,V*33
$GPGSA,A,2,05,16,10,11,08,04,,,,,,,1.0,0.6,0.8*33
$GPGSV,2,1,06,05,54,007,29,16,22,127,75,10,17,039,45,11,69,240,72*75
$GPGSV,2,2,06,08,82,304,61,04,48,275,51*71
$GPRMC,222613.418,V,4154.921,N,08202.604,W,67.9,3.16,230119,,E*48
$GPGGA,222614.418,4154.921,N,08202.604,W,0,04,0.6,,M,,M,,*75
$GPGLL,4154.921,N,08202.604,W,222615.418,V*38
$GPGSA,A,2,05,16,10,11,08,04,,,,,,,0.7,0.5,0.9*37
$GPGSV,2,1,06,05,28,055,57,16,06,151,87,10,18,167,37,11,26,306,23*76
$GPGSV,2,2,06,08,18,233,84,04,79,294,80*7D
$GPRMC,222619.418,V,4154.922,N,08202.605,W,21.2,3.17,230119,,E*48
$GPGGA,222620.418,4154.922,N,08202.605,W,0,04,0.5,,M,,M,,*73
$GPGLL,4154.922,N,08202.605,W,222621.418,V*3D
$GPGSA,A,2,05,16,10,11,08,04,,,,,,,0.1,0.3,0.3*3D
$GPGSV,2,1,06,05,37,312,72,16,30,101,34,10,36,334,20,11,41,252,81*70
$GPGSV,2,2,06,08,86,180,42,04,05,008,23*7E
$GPRMC,222625.418,V,4154.923,N,08202.607,W,59.0,3.24,230119,,E*49
$GPGGA,222626.418,4154.923,N,08202.607,W,0,04,0.3,,M,,M,,*70
$GPGLL,4154.923,N,08202.607,W,222627.418,V*38
$GPGSA,A,3,05,16,10,11,08,04,,,,,,,0.6,0.4,0.8*37
$GPGSV,2,1,06,05,63,194,19,16,67,225,48,10,69,202,60,11,16,204,89*7F
$GPGSV,2,2,06,08,54,210,66,04,88,128,85*77
$GPRMC,222631.418,V,4154.923,N,08202.609,W,18.9,3.27,230119,,E*4D
$GPGGA,222632.418,4154.923,N,08202.609,W,0,04,0.4,,M,,M,,*7C
$GPGLL,4154.923,N,08202.609,W,222633.418,V*33
$GPGSA,A,3,05,16,10,11,08,04,,,,,,,1.0,0.7,0.7*3C
$GPGSV,2,1,06,05,84,015,48,16,07,285,17,10,61,048,72,11,65,237,42*78
$GPGSV,2,2,06,08,25,123,71,04,73,084,30*79
$GPRMC,222637.418,V,4154.924,N,08202.610,W,72.1,3.18,230119,,E*4C
$GPGGA,222638.418,4154.924,N,08202.610,W,0,04,0.7,,M,,M,,*7A
$GPGLL,4154.924,N,08202.610,W,222639.418,V*36
$GPGSA,A,2,05,16,10,11,08,04,,,,,,,1.0,0.2,0.2*3D
$GPGSV,2,1,06,05,33,139,64,16,71,339,62,10,05,039,47,11,56,252,66*77
$GPGSV,2,2,06,08,39,016,37,04,06,218,57*75
$GPRMC,222643.418,V,4154.925,N,08202.612,W,4.7,3.27,230119,,E*77
$GPGGA,222644.418,4154.925,N,08202.612,W,0,04,0.2,,M,,M,,*77
$GPGLL,4154.925,N,08202.612,W,222645.418,V*3E
$GPGSA,A,2,05,16,10,11,08,04,,,,,,,0.6,0.9,0.2*31
$GPGSV,2,1,06,05,27,281,38,16,77,192,52,10,89,158,39,11,20,178,76*7D
$GPGSV,2,2,06,08,86,248,76,04,05,320,65*75
$GPRMC,222649.418,V,4154.926,N,08202.613,W,16.0,3.37,230119,,E*4A
$GPGGA,222650.418,4154.926,N,08202.613,W,0,04,0.9,,M,,M,,*7B
$GPGLL,4154.926,N,08202.613,W,222651.418,V*39
$GPGSA,A,3,05,16,10,11,08,04,,,,,,,0.4,0.4,0.1*3C
$GPGSV,2,1,06,05,50,032,41,16,39,100,57,10,42,334,15,11,60,061,58*7D
$GPGSV,2,2,06,08,28,097,84,04,86,236,42*74
$GPRMC,222655.418,V,4154.927,N,08202.615,W,40.3,3.46,230119,,E*46
$GPGGA,222656.418,4154.927,N,08202.615,W,0,04,0.4,,M,,M,,*77
$GPGLL,4154.927,N,08202.615,W,222657.418,V*38
$GPGSA,A,3,05,16,10,11,08,04,,,,,,,0.3,0.1,0.4*3B
$GPGSV,2,1,06,05,27,139,49,16,68,258,76,10,52,141,89,11,44,035,80*70
$GPGSV,2,2,06,08,82,186,50,04,20,318,75*79
$GPRMC,222701.418,V,4154.928,N,08202.616,W,8.8,3.53,230119,,E*79
$GPGGA,222702.418,4154.928,N,08202.616,W,0,04,0.1,,M,,M,,*7E
$GPGLL,4154.928,N,08202.616,W,222703.418,V*34
$GPGSA,A,2,05,16,10,11,08,04,,,,,,,0.7,0.2,0.9*30
$GPGSV,2,1,06,05,15,243,47,16,32,126,45,10,61,265,80,11,53,082,49*77
$GPGSV,2,2,06,08,86,357,46,04,89,195,87*7D
$GPRMC,222707.418,V,4154.929,N,08202.617,W,57.9,3.52,230119,,E*45
$GPGGA,222708.418,4154.929,N,08202.617,W,0,04,0.2,,M,,M,,*77
$GPGLL,4154.929,N,08202.617,W,222709.418,V*3E
$GPGSA,A,2,05,16,10,11,08,04,,,,,,,0.9,1.0,0.3*37
$GPGSV,2,1,06,05,63,133,24,16,19,086,31,10,63,326,72,11,08,316,45*73
$GPGSV,2,2,06,08,30,189,84,04,19,329,50*79
$GPRMC,222713.418,V,4154.930,N,08202.619,W,70.9,3.34,230119,,E*43
$GPGGA,222714.418,4154.930,N,08202.619,W,0,04,1.0,,M,,M,,*7F
$GPGLL,4154.930,N,08202.619,W,222715.418,V*35
$GPGSA,A,3,05,16,10,11,08,04,,,,,,,0.3,0.9,0.3*34
$GPGSV,2,1,06,05,77,266,30,16,50,327,73,10,63,280,62,11,63,323,46*77
$GPGSV,2,2,06,08,17,208,32,04,12,075,16*78
$GPRMC,222719.418,V,4154.931,N,08202.621,W,94.7,3.08,230119,,E*48
$GPGGA,222720.418,4154.931,N,08202.621,W,0,04,0.9,,M,,M,,*7A
$GPGLL,4154.931,N,08202.621,W,222721.418,V*38
$GPGSA,A,3,05,16,10,11,08,04,,,,,,,0.3,0.4,0.3*39
$GPGSV,2,1,06,05,10,162,18,16,20,333,23,10,68,269,86,11,72,215,70*7B
$GPGSV,2,2,06,08,57,208,34,04,73,252,28*77
$GPRMC,222725.418,V,4154.931,N,08202.622,W,43.6,3.19,230119,,E*4F
$GPGGA,222726.418,4154.931,N,08202.622,W,0,04,0.4,,M,,M,,*72
$GPGLL,4154.931,N,08202.622,W,222727.418,V*3D
$GPGSA,A,3,05,16,10,11,08,04,,,,,,,0.7,0.3,0.0*39
$GPGSV,2,1,06,05,20,013,75,16,06,216,34,10,63,211,77,11,36,145,88*7B
$GPGSV,2,2,06,08,59,077,51,04,07,328,80*7D
$GPRMC,222731.418,V,4154.932,N,08202.624,W,64.6,3.24,230119,,E*44
$GPGGA,222732.418,4154.932,N,08202.624,W,0,04,0.3,,M,,M,,*75
$GPGLL,4154.932,N,08202.624,W,222733.418,V*3D
$GPGSA,A,3,05,16,10,11,08,04,,,,,,,0.8,1.0,0.2*36
$GPGSV,2,1,06,05,81,195,70,16,26,056,70,10,45,119,44,11,09,160,42*7C
$GPGSV,2,2,06,08,40,227,53,04,38,103,87*70
$GPRMC,222737.418,V,4154.932,N,08202.626,W,63.6,3.17,230119,,E*47
$GPGGA,222738.418,4154.932,N,08202.626,W,0,04,1.0,,M,,M,,*7F
$GPGLL,4154.932,N,08202.626,W,222739.418,V*35
$GPGSA,A,2,05,16,10,11,08,04,,,,,,,0.7,0.7,0.9*35
$GPGSV,2,1,06,05,17,341,47,16,59,124,22,10,38,289,16,11,68,142,24*77
$GPGSV,2,2,06,08,64,237,21,04,30,308,69*73
$GPRMC,222743.418,V,4154.932,N,08202.628,W,33.2,3.07,230119,,E*4A
$GPGGA,222744.418,4154.932,N,08202.628,W,0,04,0.7,,M,,M,,*7C
$GPGLL,4154.932,N,08202.628,W,222745.418,V*30
$GPGSA,A,2,05,16,10,11,08,04,,,,,,,0.5,0.0,0.5*3C
$GPGSV,2,1,06,05,64,249,80,16,38,080,70,10,71,296,24,11,15,290,23*7D
$GPGSV,2,2,06,08,74,130,64,04,25,256,76*77
$GPRMC,222749.418,V,4154.933,N,08202.629,W,89.6,3.16,230119,,E*45
$GPGGA,222750.418,4154.933,N,08202.629,W,0,04,0.0,,M,,M,,*7E
$GPGLL,4154.933,N,08202.629,W,222751.418,V*35
$GPGSA,A,2,05,16,10,11,08,04,,,,,,,0.2,0.7,0.6*3F
$GPGSV,2,1,06,05,38,118,42,16,38,060,42,10,26,181,53,11,11,062,38*74
$GPGSV,2,2,06,08,78,120,23,04,24,049,25*72
$GPRMC,222755.418,V,4154.933,N,08202.631,W,41.3,3.13,230119,,E*45
$GPGGA,222756.418,4154.933,N,08202.631,W,0,04,0.7,,M,,M,,*76
$GPGLL,4154.933,N,08202.631,W,222757.418,V*3A
$GPGSA,A,2,05,16,10,11,08,04,,,,,,,0.3,0.6,0.1*38
$GPGSV,2,1,06,05,51,026,41,16,33,246,50,10,86,017,46,11,42,107,44*75
$GPGSV,2,2,06,08,47,259,30,04,72,099,51*7C
$GPRMC,222801.418,V,4154.933,N,08202.633,W,66.5,3.02,230119,,E*4A
$GPGGA,222802.418,4154.933,N,08202.633,W,0,04,0.6,,M,,M,,*7B
$GPGLL,4154.933,N,08202.633,W,222803.418,V*36
$GPGSA,A,2,05,16,10,11,08,04,,,,,,,0.6,0.8,0.8*3A
$GPGSV,2,1,06,05,81,206,18,16,17,284,25,10,65,166,47,11,15,223,46*70
$GPGSV,2,2,06,08,18,263,73,04,72,101,65*7F
$GPRMC,222807.418,V,4154.933,N,08202.635,W,66.4,3.01,230119,,E*48
$GPGGA,222808.418,4154.933,N,08202.635,W,0,04,0.8,,M,,M,,*79
$GPGLL,4154.933,N,08202.635,W,222809.418,V*3A
$GPGSA,A,2,05,16,10,11,08,04,,,,,,,0.8,0.3,0.9*3E
$GPGSV,2,1,06,05,51,204,27,16,56,066,55,10,65,227,22,11,33,306,73*7E
$GPGSV,2,2,06,08,86,222,75,04,87,039,40*7C
$GPRMC,222813.418,V,4154.933,N,08202.636,W,80.2,2.95,230119,,E*4C
$GPGGA,222814.418,4154.933,N,08202.636,W,0,04,0.3,,M,,M,,*7C
$GPGLL,4154.933,N,08202.636,W,222815.418,V*34
$GPGSA,A,2,05,16,10,11,08,04,,,,,,,0.2,1.0,0.3*3C
$GPGSV,2,1,06,05,62,263,30,16,70,041,65,10,12,038,19,11,34,161,48*73
$GPGSV,2,2,06,08,68,185,88,04,84,125,36*7E
$GPRMC,222819.418,V,4154.933,N,08202.638,W,67.7,2.98,230119,,E*49
$GPGGA,222820.418,4154.933,N,08202.638,W,0,04,1.0,,M,,M,,*77
$GPGLL,4154.933,N,08202.638,W,222821.418,V*3D
$GPGSA,A,2,05,16,10,11,08,04,,,,,,,0.0,0.5,0.4*3D
$GPGSV,2,1,06,05,83,213,45,16,79,181,61,10,85,000,58,11,40,193,24*7D
$GPGSV,2,2,06,08,67,355,53,04,13,054,18*7D
$GPRMC,222825.418,V,4154.933,N,08202.640,W,29.7,2.91,230119,,E*4A
$GPGGA,222826.418,4154.933,N,08202.640,W,0,04,0.5,,M,,M,,*7A
$GPGLL,4154.933,N,08202.640,W,222827.418,V*34
$GPGSA,A,2,05,16,10,11,08,04,,,,,,,0.5,0.4,0.1*3C
$GPGSV,2,1,06,05,13,064,49,16,20,319,72,10,10,097,89,11,83,122,67*7B
$GPGSV,2,2,06,08,66,086,84,04,77,310,45*72
$GPRMC,222831.418,V,4154.932,N,08202.642,W,34.8,2.90,230119,,E*4E
$GPGGA,222832.418,4154.932,N,08202.642,W,0,04,0.4,,M,,M,,*7D
$GPGLL,4154.932,N,08202.642,W,222833.418,V*32
$GPGSA,A,3,05,16,10,11,08,04,,,,,,,0.4,0.4,0.3*3E
$GPGSV,2,1,06,05,80,023,89,16,82,050,60,10,58,132,80,11,42,301,71*79
$GPGSV,2,2,06,08,74,167,25,04,22,016,30*73
$GPRMC,222837.418,V,4154.931,N,08202.643,W,3.0,2.41,230119,,E*7A
$GPGGA,222838.418,4154.931,N,08202.643,W,0,04,0.4,,M,,M,,*75
$GPGLL,4154.931,N,08202.643,W,222839.418,V*3A
$GPGSA,A,3,05,16,10,11,08,04,,,,,,,0.0,0.7,0.7*3D
$GPGSV,2,1,06,05,05,173,57,16,73,116,64,10,89,201,60,11,89,289,82*71
$GPGSV,2,2,06,08,47,341,87,04,60,124,18*71
$GPRMC,222843.418,V,4154.929,N,08202.643,W,83.3,2.00,230119,,E*4E
$GPGGA,222844.418,4154.929,N,08202.643,W,0,04,0.7,,M,,M,,*74
$GPGLL,4154.929,N,08202.643,W,222845.418,V*38
$GPGSA,A,2,05,16,10,11,08,04,,,,,,,0.8,0.4,0.4*34
$GPGSV,2,1,06,05,76,010,82,16,05,223,82,10,44,208,40,11,70,067,82*7B
$GPGSV,2,2,06,08,60,335,82,04,88,041,65*7C
$GPRMC,222849.418,V,4154.927,N,08202.643,W,66.0,1.90,230119,,E*48
$GPGGA,222850.418,4154.927,N,08202.643,W,0,04,0.4,,M,,M,,*7C
$GPGLL,4154.927,N,08202.643,W,222851.418,V*33
$GPGSA,A,2,05,16,10,11,08,04,,,,,,,0.7,0.8,0.3*30
$GPGSV,2,1,06,05,51,155,35,16,53,155,39,10,49,214,42,11,53,142,22*7C
$GPGSV,2,2,06,08,73,127,60,04,65,325,87*7D

